{
    "id": 1743325786650824214,
    "name": "香港大学",
    "address": "Pok Fu Lam, 香港",
    "rating": 4.3,
    "popularity": 60,
    "data_path": "map_data/university_map/The_University_of_Hong_Kong",
    "description": "香港大學（英語：The University of Hong Kong，縮寫：HKU），簡稱港大，是香港的一所公立研究型大學，大學本部位於香港島中西區龍虎山。大學成立於1911年，以英國伯明翰大學為藍本，由兩所當時已存在的高等院校——香港西醫書院及香港工學院合併而成，並於1912年3月11日正式辦學，是香港最早建立的高等教育機構，亦是英國在印度以東最早成立的大學。香港大學是亞洲，以至全球最頂尖的大學之一，現時位居QS世界大學排名第26位、泰晤士高等教育世界大學排名第31位。該校自創校以來一直採用英文為主要教學語言，現在共有十所學術學院，作為跨學術領域的綜合大學，其以醫學、法律、教育學、社會學、哲學、國際關係、建筑学、新聞學、社會科學、政治學、文学等見長。\n港大是香港頂尖的大學之一，現時屬於「QS世界百強大學」、「泰晤士高等教育世界百強大學」、「美國新聞與世界報道世界百強大學」及「軟科世界百強大學」。該校自創校以來一直採用英文為主要教學語言，現在共有十所學術學院，作為跨學術領域的綜合大學，其以教育學、法律學、社會學、哲學、國際關係、建筑学、新聞學、社會科學、政治學、文学等見長。\n\n",
    "images": [
        "https://upload.wikimedia.org/wikipedia/commons/e/e2/Duncan_Sloss_%28cropped%29.jpg",
        "https://upload.wikimedia.org/wikipedia/commons/8/89/G._P._Jordan.jpg",
        "https://upload.wikimedia.org/wikipedia/commons/7/7a/HKU_Centennial_Campus_201412.jpg",
        "https://upload.wikimedia.org/wikipedia/commons/2/2c/HKU_Centennial_Campus_Centennial_Garden_201412.jpg",
        "https://upload.wikimedia.org/wikipedia/commons/6/66/HKU_Centennial_Campus_Chi_Wah_Learning_Commons_Level_1_Entrance_201412.jpg",
        "https://upload.wikimedia.org/wikipedia/commons/2/2c/HKU_Centennial_Campus_Courtyard_1_201412.jpg",
        "https://upload.wikimedia.org/wikipedia/commons/c/c6/HKU_Centennial_Campus_L3_Podium_201412.jpg",
        "https://upload.wikimedia.org/wikipedia/commons/5/57/HKU_Centennial_Campus_The_University_Street_Lennon_wall_blocked_20201010.jpg",
        "https://upload.wikimedia.org/wikipedia/commons/2/24/HKU_Centennial_Campus_View1_201412.jpg",
        "https://upload.wikimedia.org/wikipedia/commons/6/6e/HKU_Democracy_Wall_clear_20210716.jpg"
    ],
    "amenity": {
        "affiliation": 1743325786650824214,
        "amenity_list": [
            {
                "id": 579172710,
                "name": "可能感兴趣的地点",
                "type": "taxi",
                "latitude": 22.2838695,
                "longitude": 114.1390066
            },
            {
                "id": 604276469,
                "name": "美心Food² Maxim's Food²",
                "type": "fast_food",
                "latitude": 22.2826742,
                "longitude": 114.1391583
            },
            {
                "id": 1925517639,
                "name": "月明泉 Yuet Ming Fountain",
                "type": "fountain",
                "latitude": 22.282704,
                "longitude": 114.1395839
            },
            {
                "id": 1925678352,
                "name": "Délifrance",
                "type": "cafe",
                "latitude": 22.2831086,
                "longitude": 114.1349751
            },
            {
                "id": 1925678683,
                "name": "EAT",
                "type": "restaurant",
                "latitude": 22.2830057,
                "longitude": 114.1364905
            },
            {
                "id": 1925678747,
                "name": "Joseph's",
                "type": "restaurant",
                "latitude": 22.2819669,
                "longitude": 114.1374162
            },
            {
                "id": 1926823773,
                "name": "太平洋咖啡 Pacific Coffee",
                "type": "cafe",
                "latitude": 22.2838667,
                "longitude": 114.1396208
            },
            {
                "id": 1926828720,
                "name": "呂志和法律圖書館 Lui Che Woo Law Library",
                "type": "library",
                "latitude": 22.2833161,
                "longitude": 114.1340395
            },
            {
                "id": 1926830927,
                "name": "Mein Bowl",
                "type": "fast_food",
                "latitude": 22.2835126,
                "longitude": 114.1381132
            },
            {
                "id": 1932297114,
                "name": "一念素食 Bijas Vegetarian",
                "type": "restaurant",
                "latitude": 22.2838172,
                "longitude": 114.134177
            },
            {
                "id": 3233038503,
                "name": "李兆基會議中心 Lee Shau Kee Lecture Centre",
                "type": "theatre",
                "latitude": 22.2833792,
                "longitude": 114.134791
            },
            {
                "id": 3937121773,
                "name": "東亞銀行香港大學分行 The Bank of East Asia HKU Branch",
                "type": "bank",
                "latitude": 22.2832776,
                "longitude": 114.1347715
            },
            {
                "id": 3937121775,
                "name": "滙豐銀行 HSBC",
                "type": "bank",
                "latitude": 22.2825216,
                "longitude": 114.1380146
            },
            {
                "id": 3937121777,
                "name": "李志雄紀念堂 Lee Chi Hung Hall",
                "type": "community_centre",
                "latitude": 22.2827206,
                "longitude": 114.13908
            },
            {
                "id": 4236919992,
                "name": "星巴克 Starbucks",
                "type": "cafe",
                "latitude": 22.28307,
                "longitude": 114.137955
            },
            {
                "id": 5166991359,
                "name": "模擬法庭 Large Moot Court",
                "type": "theatre",
                "latitude": 22.2832464,
                "longitude": 114.1340131
            },
            {
                "id": 5180139180,
                "name": "智華館 Chi Wah Learning Commons",
                "type": "community_centre",
                "latitude": 22.2834768,
                "longitude": 114.1346057
            },
            {
                "id": 5211827929,
                "name": "OBC Grill",
                "type": "restaurant",
                "latitude": 22.2832635,
                "longitude": 114.1349509
            },
            {
                "id": 5872337761,
                "name": "Cafe 330",
                "type": "cafe",
                "latitude": 22.2827211,
                "longitude": 114.139121
            },
            {
                "id": 5872343405,
                "name": "Fong Shu Chuen Amenities Centre Restaurant",
                "type": "restaurant",
                "latitude": 22.2838689,
                "longitude": 114.1396956
            },
            {
                "id": 5872350035,
                "name": "Ebeneezer's Kebabs & Pizzeria",
                "type": "restaurant",
                "latitude": 22.2838987,
                "longitude": 114.1397631
            },
            {
                "id": 5872358686,
                "name": "Subway",
                "type": "fast_food",
                "latitude": 22.2826412,
                "longitude": 114.1383404
            },
            {
                "id": 5872371137,
                "name": "Pan Asian strEAT Food",
                "type": "restaurant",
                "latitude": 22.2836132,
                "longitude": 114.1338722
            },
            {
                "id": 5882515885,
                "name": "美心MX Maxim's MX",
                "type": "fast_food",
                "latitude": 22.2827118,
                "longitude": 114.1390039
            },
            {
                "id": 7684933182,
                "name": "香港大學醫療保健處 University Health Service, The University of Hong Kong",
                "type": "clinic",
                "latitude": 22.2822168,
                "longitude": 114.1391526
            },
            {
                "id": 182172765,
                "name": "綜合大樓 (香港大學學生會) Composite Building (HKU Students' Union)",
                "type": "parking",
                "latitude": 22.283185844930934,
                "longitude": 114.13591825691748
            },
            {
                "id": 182213408,
                "name": "聖公會聖彼得小學 SKH St. Peter's Primary School",
                "type": "school",
                "latitude": 22.284209631151985,
                "longitude": 114.13566767015261
            },
            {
                "id": 397113858,
                "name": "聖嘉勒小學 St Clare's Primary School",
                "type": "school",
                "latitude": 22.283506712180735,
                "longitude": 114.14033483660646
            },
            {
                "id": 536451334,
                "name": "音樂圖書館 Music Library",
                "type": "library",
                "latitude": 22.283716907924223,
                "longitude": 114.1345997654295
            },
            {
                "id": 898471121,
                "name": "香港大學圖書館 HKU Main Library",
                "type": "library",
                "latitude": 22.283308883364967,
                "longitude": 114.13781755060727
            },
            {
                "id": 5872360694,
                "name": "iBakery",
                "type": "nan",
                "latitude": 22.2826519,
                "longitude": 114.1381314
            },
            {
                "id": 181773515,
                "name": "包兆龍樓 Pao Siu Loong Building",
                "type": "nan",
                "latitude": 22.28453584299238,
                "longitude": 114.13755187074817
            },
            {
                "id": 181773526,
                "name": "孔慶熒樓 Hung Hing Ying Building",
                "type": "nan",
                "latitude": 22.28456104159197,
                "longitude": 114.13787706635223
            },
            {
                "id": 182023171,
                "name": "鈕魯詩樓 Knowles Building",
                "type": "nan",
                "latitude": 22.28320147141616,
                "longitude": 114.138455371236
            },
            {
                "id": 182023173,
                "name": "梁銶琚樓 K.K. Leung Building",
                "type": "nan",
                "latitude": 22.28328196664569,
                "longitude": 114.13903535204288
            },
            {
                "id": 182023175,
                "name": "本部圖書館大樓（舊翼）Main Library (Old Wing)",
                "type": "nan",
                "latitude": 22.28307632734696,
                "longitude": 114.13780290351204
            },
            {
                "id": 182023179,
                "name": "圖書館新翼 Library Extension",
                "type": "nan",
                "latitude": 22.28342686428692,
                "longitude": 114.13782519645143
            },
            {
                "id": 182024491,
                "name": "嘉道理生物科學大樓 Kadoorie Biological Sciences Building",
                "type": "nan",
                "latitude": 22.28349866051859,
                "longitude": 114.13709201495853
            },
            {
                "id": 182172764,
                "name": "周亦卿樓 Chow Yei Ching Building",
                "type": "nan",
                "latitude": 22.283057026161366,
                "longitude": 114.13547544219827
            },
            {
                "id": 182172767,
                "name": "西區食水及海水抽水站 Elliot Fresh Water and Salt Water Pumping Station",
                "type": "nan",
                "latitude": 22.28341399738188,
                "longitude": 114.13535408373731
            },
            {
                "id": 182172768,
                "name": "李國賢堂 Simon K.Y. Lee Hall",
                "type": "nan",
                "latitude": 22.283014650360368,
                "longitude": 114.13589630033354
            },
            {
                "id": 182172769,
                "name": "黃克競樓 Haking Wong Building",
                "type": "nan",
                "latitude": 22.282958584110652,
                "longitude": 114.1364677621783
            },
            {
                "id": 182172774,
                "name": "Haking Wong Podium",
                "type": "nan",
                "latitude": 22.283162856582535,
                "longitude": 114.13645800758972
            },
            {
                "id": 182203609,
                "name": "邵仁枚樓 Runme Shaw Building",
                "type": "nan",
                "latitude": 22.282486040143674,
                "longitude": 114.1386740958442
            },
            {
                "id": 182203618,
                "name": "邵逸夫樓 Run Run Shaw Building",
                "type": "nan",
                "latitude": 22.28251304723092,
                "longitude": 114.13805948444366
            },
            {
                "id": 182203620,
                "name": "研究生堂 Graduate House",
                "type": "nan",
                "latitude": 22.28195695779612,
                "longitude": 114.13745418552108
            },
            {
                "id": 182203625,
                "name": "厲樹雄科學館 James Hsioung Lee Science Building",
                "type": "nan",
                "latitude": 22.28253601907418,
                "longitude": 114.13744936393441
            },
            {
                "id": 182203643,
                "name": "黃麗松講堂 Rayson Huang Theatre",
                "type": "nan",
                "latitude": 22.282496950000002,
                "longitude": 114.13836360000002
            },
            {
                "id": 182203645,
                "name": "柏立基學院 Robert Black College",
                "type": "nan",
                "latitude": 22.281755836393206,
                "longitude": 114.13912790284533
            },
            {
                "id": 182203649,
                "name": "許愛周科學館 Hui Oi Chow Science Building",
                "type": "nan",
                "latitude": 22.28280322591117,
                "longitude": 114.13774819387079
            },
            {
                "id": 182203652,
                "name": "莊月明文娛中心 Chong Yuet Ming Amenities Centre",
                "type": "nan",
                "latitude": 22.282710787247787,
                "longitude": 114.13919377721282
            },
            {
                "id": 182208614,
                "name": "儀禮堂 Eliot Hall",
                "type": "nan",
                "latitude": 22.28255677026685,
                "longitude": 114.13971751277096
            },
            {
                "id": 182208617,
                "name": "梅堂 May Hall",
                "type": "nan",
                "latitude": 22.282335380401378,
                "longitude": 114.13980801788829
            },
            {
                "id": 182208619,
                "name": "莊月明化學樓 Chong Yuet Ming Chemistry Building",
                "type": "nan",
                "latitude": 22.282962646795774,
                "longitude": 114.14007937317714
            },
            {
                "id": 182208628,
                "name": "莊月明物理樓 Chong Yuet Ming Physics Building",
                "type": "nan",
                "latitude": 22.28320006617356,
                "longitude": 114.13987033643316
            },
            {
                "id": 182208630,
                "name": "徐展堂樓 T.T. Tsui Building",
                "type": "nan",
                "latitude": 22.283910099710955,
                "longitude": 114.1394004523219
            },
            {
                "id": 182208638,
                "name": "太古樓 Swire Building",
                "type": "nan",
                "latitude": 22.283732576661066,
                "longitude": 114.13970844619483
            },
            {
                "id": 182208641,
                "name": "鄧志昂樓 Tang Chi Ngong Building",
                "type": "nan",
                "latitude": 22.28356959841587,
                "longitude": 114.1399612611597
            },
            {
                "id": 182208644,
                "name": "馮平山樓 Fung Ping Shan Building",
                "type": "nan",
                "latitude": 22.283695507663904,
                "longitude": 114.13910670098352
            },
            {
                "id": 182213417,
                "name": "任白樓 Yam Pak Building",
                "type": "nan",
                "latitude": 22.284125812147266,
                "longitude": 114.13544683205473
            },
            {
                "id": 182298778,
                "name": "香港大學訪客中心 Visitor and Information Centre",
                "type": "nan",
                "latitude": 22.28393675,
                "longitude": 114.13418825000002
            },
            {
                "id": 182298784,
                "name": "逸夫苑 Run Run Shaw Heritage House",
                "type": "nan",
                "latitude": 22.283882105456765,
                "longitude": 114.13456198014593
            },
            {
                "id": 315571039,
                "name": "賽馬會教學樓 The Jockey Club Tower",
                "type": "nan",
                "latitude": 22.283214459203123,
                "longitude": 114.13465781787768
            },
            {
                "id": 315571042,
                "name": "鄭裕彤教學樓 Cheng Yu Tung Yower",
                "type": "nan",
                "latitude": 22.2833053826908,
                "longitude": 114.13375427081971
            },
            {
                "id": 315571046,
                "name": "逸夫教學樓 Run Run Shaw Tower",
                "type": "nan",
                "latitude": 22.283708075480465,
                "longitude": 114.13445276171723
            },
            {
                "id": 315572281,
                "name": "Centennial Gate",
                "type": "nan",
                "latitude": 22.28412704809566,
                "longitude": 114.13438519911372
            },
            {
                "id": 315843025,
                "name": "HKU Station Exit A",
                "type": "nan",
                "latitude": 22.283404137599973,
                "longitude": 114.13673258167032
            },
            {
                "id": 315843026,
                "name": "港鐵香港大學站通風及機房大樓 MTR HKU Station Ventilation and Plant Building",
                "type": "nan",
                "latitude": 22.28435269334605,
                "longitude": 114.13518556045719
            },
            {
                "id": 390554535,
                "name": "明華綜合大樓 Meng Wah Complex",
                "type": "nan",
                "latitude": 22.28233375188813,
                "longitude": 114.13916622899558
            },
            {
                "id": 390554537,
                "name": "大學道一號 University Lodge",
                "type": "nan",
                "latitude": 22.281471048623573,
                "longitude": 114.14006488540831
            },
            {
                "id": 448042970,
                "name": "旭龢道食水配水庫",
                "type": "nan",
                "latitude": 22.281064737879703,
                "longitude": 114.13884881047068
            },
            {
                "id": 448042971,
                "name": "旭龢道食水抽水站",
                "type": "nan",
                "latitude": 22.281275021106865,
                "longitude": 114.13934049697605
            },
            {
                "id": 453772338,
                "name": "西區濾水廠房 Elliot Treatment Works Building",
                "type": "nan",
                "latitude": 22.282937784170887,
                "longitude": 114.13355861090098
            },
            {
                "id": 534044190,
                "name": "Central Podium",
                "type": "nan",
                "latitude": 22.283479544551163,
                "longitude": 114.1343847479848
            },
            {
                "id": 2424275,
                "name": "本部大樓 Main Building",
                "type": "nan",
                "latitude": 22.284035758806993,
                "longitude": 114.13785355358364
            }
        ]
    }
}