{
    "id": -9067508765776212465,
    "name": "西北工业大学",
    "address": "中国陕西省西安市碑林区友谊西路127号 邮政编码: 710060",
    "rating": 4.7,
    "popularity": 60,
    "data_path": "map_data/university_map/Northwestern_Polytechnical_University",
    "description": "西北工业大学（英語：Northwestern Polytechnical University，缩写：NWPU），简称西工大，旧称国立西北工学院、西北工学院，是一所位于陕西省西安市的公立大学，是一所以发展航空、航天、航海（三航）等领域人才培养和科学研究为特色的多科性、研究型、开放式大学，现隶属于中华人民共和国工业和信息化部。学校现有两个校区，其中长安校区位于西安市长安区，友谊校区位于碑林区，在江苏省太仓市设有太仓智汇港，在哈萨克斯坦设有分校。\n西北工业大学是中华人民共和国顶尖高校之一，是“双一流A类”和原“985工程”、原“211工程”重点建设大学。西工大的前身为1938年由国立北洋工学院、国立北平大学工学院、国立东北大学工学院、私立焦作工学院在陕西汉中组建的国立西北工学院；1946年迁至咸阳，1950年更名为西北工学院；1952年交通大学、浙江大学、南京大学的航空工程系在南京组建华东航空学院；1956年迁至西安，更名为西安航空学院；1957年，西北工学院与西安航空学院合并组建西北工业大学；1970年，原中国人民解放军军事工程学院航空工程系整体并入。\n\n",
    "images": [
        "https://upload.wikimedia.org/wikipedia/commons/0/00/Northwestern_Polytechnical_University_1.jpg",
        "https://upload.wikimedia.org/wikipedia/commons/5/54/Northwestern_Polytechnical_University_2.jpg",
        "https://upload.wikimedia.org/wikipedia/commons/b/bd/Northwestern_Polytechnical_University_3.jpg",
        "https://upload.wikimedia.org/wikipedia/commons/0/0b/Platopainting.jpg"
    ],
    "amenity": {
        "affiliation": -9067508765776212465,
        "amenity_list": [
            {
                "id": 3643535059,
                "name": "可能感兴趣的地点",
                "type": "bank",
                "latitude": 34.2461666,
                "longitude": 108.9123619
            },
            {
                "id": 3684849853,
                "name": "晨光烧饼",
                "type": "restaurant",
                "latitude": 34.2474244,
                "longitude": 108.9155346
            },
            {
                "id": 3684897981,
                "name": "王二羊肉面馆",
                "type": "restaurant",
                "latitude": 34.247521,
                "longitude": 108.9155346
            },
            {
                "id": 3686351885,
                "name": "中国工商银行ATM",
                "type": "atm",
                "latitude": 34.2449394,
                "longitude": 108.9126479
            },
            {
                "id": 3686357125,
                "name": "中国建设银行ATM",
                "type": "atm",
                "latitude": 34.2446517,
                "longitude": 108.9126538
            },
            {
                "id": 5400373021,
                "name": "中国银行",
                "type": "bank",
                "latitude": 34.2473835,
                "longitude": 108.9115531
            },
            {
                "id": 333988781,
                "name": "西北工业大学附属小学",
                "type": "school",
                "latitude": 34.247444028093746,
                "longitude": 108.91236249521963
            },
            {
                "id": 359583115,
                "name": "西工大医院",
                "type": "hospital",
                "latitude": 34.24817154536745,
                "longitude": 108.9076007635945
            },
            {
                "id": 359583122,
                "name": "西北工业大学幼儿园",
                "type": "childcare",
                "latitude": 34.24754554345333,
                "longitude": 108.91042204396264
            },
            {
                "id": 359677859,
                "name": "西北工业大学 图书馆",
                "type": "library",
                "latitude": 34.24453977352456,
                "longitude": 108.91119729086488
            },
            {
                "id": 362794777,
                "name": "西北工业大学老图书馆",
                "type": "library",
                "latitude": 34.244522124097486,
                "longitude": 108.91003930257814
            },
            {
                "id": 177231508,
                "name": "毅字楼",
                "type": "nan",
                "latitude": 34.24377082383988,
                "longitude": 108.91108710762522
            },
            {
                "id": 359583116,
                "name": "西湖1#楼",
                "type": "nan",
                "latitude": 34.24747166729512,
                "longitude": 108.90643366773307
            },
            {
                "id": 359583118,
                "name": "西湖2#楼",
                "type": "nan",
                "latitude": 34.2479331601105,
                "longitude": 108.90689131983692
            },
            {
                "id": 359677856,
                "name": "学生公寓3号楼",
                "type": "nan",
                "latitude": 34.24584558873167,
                "longitude": 108.91274541131885
            },
            {
                "id": 362794778,
                "name": "研究生东馆",
                "type": "nan",
                "latitude": 34.24380781210141,
                "longitude": 108.90998310499347
            },
            {
                "id": 362794781,
                "name": "综合服务大楼",
                "type": "nan",
                "latitude": 34.247379683979496,
                "longitude": 108.91148273477502
            },
            {
                "id": 367533761,
                "name": "勇字楼",
                "type": "nan",
                "latitude": 34.24375514999999,
                "longitude": 108.90906670000001
            },
            {
                "id": 367533762,
                "name": "研究生西馆",
                "type": "nan",
                "latitude": 34.24370769364536,
                "longitude": 108.90817816376118
            },
            {
                "id": 367533763,
                "name": "教育基金会办公室",
                "type": "nan",
                "latitude": 34.24376785,
                "longitude": 108.91196910000001
            },
            {
                "id": 367533765,
                "name": "机电学院",
                "type": "nan",
                "latitude": 34.245645257816726,
                "longitude": 108.91180940337526
            },
            {
                "id": 367533766,
                "name": "学舟楼",
                "type": "nan",
                "latitude": 34.245953784096045,
                "longitude": 108.90949632569755
            },
            {
                "id": 367533767,
                "name": "机电实验教学中心",
                "type": "nan",
                "latitude": 34.245776760957746,
                "longitude": 108.9097792255585
            },
            {
                "id": 367533768,
                "name": "书海楼",
                "type": "nan",
                "latitude": 34.24594307748007,
                "longitude": 108.9086930180163
            },
            {
                "id": 432830344,
                "name": "公字楼",
                "type": "nan",
                "latitude": 34.243632758672554,
                "longitude": 108.90688789189517
            },
            {
                "id": 432830345,
                "name": "凝固实验室",
                "type": "nan",
                "latitude": 34.24455465,
                "longitude": 108.90680025
            },
            {
                "id": 432830346,
                "name": "诚字楼",
                "type": "nan",
                "latitude": 34.24526305180126,
                "longitude": 108.90907504212215
            },
            {
                "id": 432830348,
                "name": "管理学院",
                "type": "nan",
                "latitude": 34.2455032,
                "longitude": 108.91058054999998
            },
            {
                "id": 432830349,
                "name": "南村1号楼",
                "type": "nan",
                "latitude": 34.24642595239484,
                "longitude": 108.91122147509336
            },
            {
                "id": 432830350,
                "name": "南村2号楼",
                "type": "nan",
                "latitude": 34.24641815,
                "longitude": 108.9104145
            },
            {
                "id": 988902352,
                "name": "西北工业大学创新科技大楼",
                "type": "nan",
                "latitude": 34.24541414372525,
                "longitude": 108.90621620066068
            },
            {
                "id": 6433775,
                "name": "航空楼",
                "type": "nan",
                "latitude": 34.24568888343184,
                "longitude": 108.91084109602134
            }
        ]
    }
}