{
    "id": 6600191303587687004,
    "name": "湖南大学",
    "address": "中国湖南省长沙市岳麓区麓山南路2号 邮政编码: 410012",
    "rating": 4.7,
    "popularity": 76,
    "data_path": "map_data/university_map/Hunan_University_",
    "description": "湖南大學（英語：Hunan University，縮寫：HNU），簡稱湖大，是中华人民共和国湖南省的一所全日制公办本科高校，位於湖南省長沙市，為中华人民共和国教育部直屬大學。主校區東瀕湘江，西偎嶽麓山，置身嶽麓山—橘子洲國家5A級旅遊景區。其辦學起源於北宋開寶九年（公元976年）創建的嶽麓書院，以及清朝光緒23年（公元1897年）創建的時務學堂，光緒29年（公元1903年）合併改建為湖南高等學堂，民國15年（公元1926年）組建湖南省立湖南大學，並於民國26年（公元1937年）升格為國立湖南大學。新中國成立後，中共一大代表、教育家李達就任校長，校名由毛澤東題寫。现今的湖南大学也是双一流、985工程重點建設大學。\n\n",
    "images": [
        "https://upload.wikimedia.org/wikipedia/commons/4/42/Gaizhi.jpg",
        "https://upload.wikimedia.org/wikipedia/commons/4/49/Hnuapartment.jpg",
        "https://upload.wikimedia.org/wikipedia/commons/c/c6/Hnustadium.jpg",
        "https://upload.wikimedia.org/wikipedia/commons/b/bc/No_2_building.jpg",
        "https://upload.wikimedia.org/wikipedia/commons/8/8d/Old_library.JPG",
        "https://upload.wikimedia.org/wikipedia/commons/2/2c/Qnc.jpg",
        "https://upload.wikimedia.org/wikipedia/commons/c/c5/Seek_truth.jpg",
        "https://upload.wikimedia.org/wikipedia/commons/3/32/Yuelu-Academy-Gate.jpg",
        "https://upload.wikimedia.org/wikipedia/commons/e/e2/%E5%A4%A7%E7%A4%BC%E5%A0%82.JPG",
        "https://upload.wikimedia.org/wikipedia/commons/1/10/%E7%A7%91%E5%AD%A6%E9%A6%86.jpg"
    ],
    "amenity": {
        "affiliation": 6600191303587687004,
        "amenity_list": [
            {
                "id": 7715264720,
                "name": "可能感兴趣的地点",
                "type": "parking",
                "latitude": 28.1849445,
                "longitude": 112.9453497
            },
            {
                "id": 54827275,
                "name": "湖南大学图书馆",
                "type": "library",
                "latitude": 28.183706498608835,
                "longitude": 112.93883838872598
            },
            {
                "id": 312550765,
                "name": "湖南大学五、三食堂",
                "type": "restaurant",
                "latitude": 28.18216315,
                "longitude": 112.94305464999998
            },
            {
                "id": 312886957,
                "name": "湖南大学医院",
                "type": "hospital",
                "latitude": 28.182324593193236,
                "longitude": 112.93593938863218
            },
            {
                "id": 337142429,
                "name": "湖南大学第四食堂",
                "type": "restaurant",
                "latitude": 28.185805387683608,
                "longitude": 112.939173897157
            },
            {
                "id": 54827271,
                "name": "体育馆",
                "type": "nan",
                "latitude": 28.184204540996117,
                "longitude": 112.94083237566896
            },
            {
                "id": 272516773,
                "name": "复临舍",
                "type": "nan",
                "latitude": 28.181553108106552,
                "longitude": 112.93950989283653
            },
            {
                "id": 272516774,
                "name": "外国语学院和国防生办公室（二办）",
                "type": "nan",
                "latitude": 28.182207267178914,
                "longitude": 112.93934091054831
            },
            {
                "id": 272516776,
                "name": "中楼",
                "type": "nan",
                "latitude": 28.18151695969293,
                "longitude": 112.9404911520939
            },
            {
                "id": 272516779,
                "name": "工商管理学院",
                "type": "nan",
                "latitude": 28.180588329516834,
                "longitude": 112.93975635498742
            },
            {
                "id": 272516788,
                "name": "东楼",
                "type": "nan",
                "latitude": 28.184824360042633,
                "longitude": 112.93838923588655
            },
            {
                "id": 272516790,
                "name": "湖南大学图书馆特藏分馆",
                "type": "nan",
                "latitude": 28.183563868032397,
                "longitude": 112.93761101753583
            },
            {
                "id": 307871886,
                "name": "湖南大学综合楼",
                "type": "nan",
                "latitude": 28.172819480292702,
                "longitude": 112.94046936859799
            },
            {
                "id": 310762331,
                "name": "前进楼",
                "type": "nan",
                "latitude": 28.18068381112103,
                "longitude": 112.94026427984049
            },
            {
                "id": 310763587,
                "name": "办公楼",
                "type": "nan",
                "latitude": 28.18228332012679,
                "longitude": 112.93852969301838
            },
            {
                "id": 310763589,
                "name": "逸夫楼",
                "type": "nan",
                "latitude": 28.180932913511956,
                "longitude": 112.9382503976646
            },
            {
                "id": 312552700,
                "name": "自卑亭",
                "type": "nan",
                "latitude": 28.183217644377404,
                "longitude": 112.93906957415395
            },
            {
                "id": 312886955,
                "name": "生物学院",
                "type": "nan",
                "latitude": 28.182228600000006,
                "longitude": 112.9379411
            },
            {
                "id": 312886964,
                "name": "建筑与规划学院",
                "type": "nan",
                "latitude": 28.182329977224153,
                "longitude": 112.94255332809028
            },
            {
                "id": 312886965,
                "name": "化工楼",
                "type": "nan",
                "latitude": 28.184291071495874,
                "longitude": 112.93857368699678
            },
            {
                "id": 314215552,
                "name": "电气与信息工程学院",
                "type": "nan",
                "latitude": 28.184844921689386,
                "longitude": 112.93994664875497
            },
            {
                "id": 314215553,
                "name": "物理与微电子科学学院",
                "type": "nan",
                "latitude": 28.184732095948583,
                "longitude": 112.9368868653627
            },
            {
                "id": 321958795,
                "name": "中国书院博物馆",
                "type": "nan",
                "latitude": 28.183172815449566,
                "longitude": 112.93556757491108
            },
            {
                "id": 337142400,
                "name": "土木工程学院",
                "type": "nan",
                "latitude": 28.18072460359763,
                "longitude": 112.94121775971405
            },
            {
                "id": 337142414,
                "name": "国际教育学院",
                "type": "nan",
                "latitude": 28.1827381842808,
                "longitude": 112.93665275106459
            },
            {
                "id": 337142416,
                "name": "大礼堂",
                "type": "nan",
                "latitude": 28.183622754404585,
                "longitude": 112.9370462257144
            },
            {
                "id": 337142418,
                "name": "集贤宾馆",
                "type": "nan",
                "latitude": 28.18523503162487,
                "longitude": 112.93689405155627
            },
            {
                "id": 337142421,
                "name": "物理实验中心",
                "type": "nan",
                "latitude": 28.185235367548987,
                "longitude": 112.93770182442962
            },
            {
                "id": 337142437,
                "name": "七舍",
                "type": "nan",
                "latitude": 28.18322567459088,
                "longitude": 112.94261844518215
            },
            {
                "id": 337142443,
                "name": "材料科学与工程学院",
                "type": "nan",
                "latitude": 28.181354754897427,
                "longitude": 112.9430636821295
            },
            {
                "id": 337142447,
                "name": "胜利斋",
                "type": "nan",
                "latitude": 28.182773771031712,
                "longitude": 112.93614715876576
            },
            {
                "id": 337142451,
                "name": "新闻传播与影视艺术学院（北楼）",
                "type": "nan",
                "latitude": 28.182411365388628,
                "longitude": 112.94050017498809
            },
            {
                "id": 459800244,
                "name": "湖南大学游泳馆",
                "type": "nan",
                "latitude": 28.176427883775084,
                "longitude": 112.94138617690244
            },
            {
                "id": 459800651,
                "name": "研究生楼",
                "type": "nan",
                "latitude": 28.17713893824986,
                "longitude": 112.94062740496908
            },
            {
                "id": 578583510,
                "name": "物电院B栋",
                "type": "nan",
                "latitude": 28.17328340706261,
                "longitude": 112.94009151383551
            },
            {
                "id": 826336731,
                "name": "湖南大学机器人学院",
                "type": "nan",
                "latitude": 28.184720792525077,
                "longitude": 112.94440832544706
            },
            {
                "id": 826336732,
                "name": "B2栋",
                "type": "nan",
                "latitude": 28.18531334866765,
                "longitude": 112.9447135974846
            },
            {
                "id": 826336733,
                "name": "凤凰山庄1栋",
                "type": "nan",
                "latitude": 28.185279741962688,
                "longitude": 112.94523365671454
            },
            {
                "id": 826336734,
                "name": "凤凰山庄2栋",
                "type": "nan",
                "latitude": 28.18551610690248,
                "longitude": 112.94525004561945
            },
            {
                "id": 826336735,
                "name": "D1栋",
                "type": "nan",
                "latitude": 28.18331909734445,
                "longitude": 112.94483206827634
            },
            {
                "id": 826336736,
                "name": "D4栋",
                "type": "nan",
                "latitude": 28.1831951802322,
                "longitude": 112.94519373141621
            },
            {
                "id": 826336740,
                "name": "机器人研究院",
                "type": "nan",
                "latitude": 28.18577716690866,
                "longitude": 112.94493609865586
            },
            {
                "id": 826336741,
                "name": "星巴克",
                "type": "nan",
                "latitude": 28.187090984231826,
                "longitude": 112.94417432212146
            },
            {
                "id": 826336742,
                "name": "方叔章公馆",
                "type": "nan",
                "latitude": 28.184582724968113,
                "longitude": 112.94496416271717
            },
            {
                "id": 826346233,
                "name": "D2栋",
                "type": "nan",
                "latitude": 28.183870516503806,
                "longitude": 112.9450500706967
            },
            {
                "id": 826346234,
                "name": "D3栋",
                "type": "nan",
                "latitude": 28.184253034017416,
                "longitude": 112.94529801803557
            },
            {
                "id": 826353700,
                "name": "汉堡王",
                "type": "nan",
                "latitude": 28.186466532080143,
                "longitude": 112.94442929692016
            },
            {
                "id": 826353701,
                "name": "B3栋",
                "type": "nan",
                "latitude": 28.18583604254423,
                "longitude": 112.94459961408525
            },
            {
                "id": 1150591611,
                "name": "工训中心A栋",
                "type": "nan",
                "latitude": 28.1808318537146,
                "longitude": 112.94208009555393
            },
            {
                "id": 1150591612,
                "name": "工训中心B栋",
                "type": "nan",
                "latitude": 28.18036285993936,
                "longitude": 112.94209550366025
            },
            {
                "id": 1150591613,
                "name": "工训中心C栋",
                "type": "nan",
                "latitude": 28.180037216422242,
                "longitude": 112.94210177081976
            },
            {
                "id": 1150591614,
                "name": "工训中心D栋",
                "type": "nan",
                "latitude": 28.180635780967293,
                "longitude": 112.94278779485951
            },
            {
                "id": 1150591615,
                "name": "工训中心F栋",
                "type": "nan",
                "latitude": 28.17985405940767,
                "longitude": 112.94257351443903
            },
            {
                "id": 1150591616,
                "name": "工训中心E栋",
                "type": "nan",
                "latitude": 28.18009210473176,
                "longitude": 112.94268945197274
            },
            {
                "id": 1229018646,
                "name": "物电院A栋",
                "type": "nan",
                "latitude": 28.173833605481853,
                "longitude": 112.93979214916045
            },
            {
                "id": 1229018655,
                "name": "湖南大学智能制造前沿交叉技术科研楼",
                "type": "nan",
                "latitude": 28.17777442930696,
                "longitude": 112.94144652520642
            },
            {
                "id": 1229018657,
                "name": "湖南大学智能制造前沿交叉技术科研楼",
                "type": "nan",
                "latitude": 28.178387535288284,
                "longitude": 112.94145167394814
            },
            {
                "id": 1229018660,
                "name": "数学学院",
                "type": "nan",
                "latitude": 28.173519307687723,
                "longitude": 112.94089266316024
            },
            {
                "id": 4196633,
                "name": "机械与汽车运载学院",
                "type": "nan",
                "latitude": 28.18148202605144,
                "longitude": 112.94176567385844
            },
            {
                "id": 4767677,
                "name": "工程实验中心",
                "type": "nan",
                "latitude": 28.17946567371102,
                "longitude": 112.9411583068043
            },
            {
                "id": 4767679,
                "name": "信息科学与工程学院",
                "type": "nan",
                "latitude": 28.178440194453827,
                "longitude": 112.94056416281103
            },
            {
                "id": 4767681,
                "name": "环境馆",
                "type": "nan",
                "latitude": 28.181737003450046,
                "longitude": 112.9381252270724
            },
            {
                "id": 4767683,
                "name": "十八舍",
                "type": "nan",
                "latitude": 28.185171319939883,
                "longitude": 112.93899540436155
            },
            {
                "id": 4767685,
                "name": "六舍",
                "type": "nan",
                "latitude": 28.183390490788216,
                "longitude": 112.941759539277
            },
            {
                "id": 4767687,
                "name": "十七舍",
                "type": "nan",
                "latitude": 28.18149495224335,
                "longitude": 112.94244434604396
            },
            {
                "id": 4768043,
                "name": "十四舍",
                "type": "nan",
                "latitude": 28.18227690741191,
                "longitude": 112.94445002502745
            },
            {
                "id": 4768044,
                "name": "法学院",
                "type": "nan",
                "latitude": 28.18233416855385,
                "longitude": 112.9419515935994
            },
            {
                "id": 4768310,
                "name": "四合院子",
                "type": "nan",
                "latitude": 28.181956101958498,
                "longitude": 112.94084429054587
            },
            {
                "id": 4770434,
                "name": "九舍",
                "type": "nan",
                "latitude": 28.185852157023948,
                "longitude": 112.93953030092305
            }
        ]
    }
}