{
    "id": 675108418506474250,
    "name": "上海师范大学",
    "address": "中国上海市奉贤区海思路100号 邮政编码: 201418",
    "rating": 4.5,
    "popularity": 96,
    "data_path": "map_data/university_map/Shanghai_Normal_University",
    "description": "上海师范大学（英文：Shanghai Normal University，缩写：SHNU，简称：上海师大、上师大），是一所位于中国上海市的研究型公立大学，上海市人民政府同中华人民共和国教育部省部共建，属三所市重点大学之一（另外两所为上海大学同上海理工大学）。目前该校在上海共有2个校区，分别位于徐汇区以及奉贤区。学校排名USNEWS2019世界大学排行榜中国内地高校84位，QS2019亚洲大学排行榜中国内地高校50位。根据2019年自然指数综合排名，学校在中国大学顶尖论文指数排名第12。在2019年的软科2019中国最好学科排名中，学校共有20个学科上榜，上榜学科总数居中国内地高校第84位。连续多年进入英国《泰晤士高等教育》QS亚洲大学排行榜200强，2013年，位于亚洲大学排名181位。在2014年的QS世界大学排名中，学校QS学术论文总被引数方面排名为378位，进入世界大学前400名。\n上海师范大学源于1954年创办的上海师范专科学校，后经国务院批准，在该校基础上分别成立了上海第一师范学院和上海第二师范学院。1958年，两院合并，成立上海师范学院。院长由时任国务院总理周恩来亲自任命的第一师院院长、著名教育家廖世承再度出任。时任中国科学院首任院长的文学家、历史学家郭沫若为上海师范学院亲笔题写了校名。1984年，由上海市政府批准上海师范学院正式更名为上海师范大学。\n\n",
    "images": [
        "https://upload.wikimedia.org/wikipedia/commons/7/70/Shanghai_Normal_University_%28Xuhui_Campus%29.jpg",
        "https://upload.wikimedia.org/wikipedia/zh/f/f0/Shanghai_Normal_University_logo.jpg"
    ],
    "amenity": {
        "affiliation": 675108418506474250,
        "amenity_list": [
            {
                "id": 1563324872,
                "name": "可能感兴趣的地点",
                "type": "toilets",
                "latitude": 31.1639349,
                "longitude": 121.4145107
            },
            {
                "id": 543913614,
                "name": "上海师范大学附属中学",
                "type": "school",
                "latitude": 31.165344351881,
                "longitude": 121.41355274686353
            },
            {
                "id": 790306946,
                "name": "上海行政学院第三分院",
                "type": "school",
                "latitude": 31.163585678603813,
                "longitude": 121.40940615740098
            },
            {
                "id": 863132756,
                "name": "上海师范大学校医院",
                "type": "hospital",
                "latitude": 31.16106076472469,
                "longitude": 121.41150914571848
            },
            {
                "id": 863132640,
                "name": "上海师范大学第三教学楼",
                "type": "nan",
                "latitude": 31.16319655708493,
                "longitude": 121.41790488509294
            },
            {
                "id": 863132719,
                "name": "上海师范大学第六教学楼",
                "type": "nan",
                "latitude": 31.16363619007473,
                "longitude": 121.41420543166721
            },
            {
                "id": 863132721,
                "name": "上海师范大学第一教学楼",
                "type": "nan",
                "latitude": 31.163317837911535,
                "longitude": 121.41251354198394
            },
            {
                "id": 863132742,
                "name": "环境与地理科学学院",
                "type": "nan",
                "latitude": 31.165402180064383,
                "longitude": 121.41228370364387
            },
            {
                "id": 863132755,
                "name": "美术学院设计楼",
                "type": "nan",
                "latitude": 31.161503083874837,
                "longitude": 121.4119814293298
            },
            {
                "id": 863132771,
                "name": "香樟苑食堂",
                "type": "nan",
                "latitude": 31.16229568083886,
                "longitude": 121.4106909158663
            },
            {
                "id": 863132772,
                "name": "桃李居食堂",
                "type": "nan",
                "latitude": 31.162226850000003,
                "longitude": 121.41002745000002
            },
            {
                "id": 863132776,
                "name": "丹桂苑食堂",
                "type": "nan",
                "latitude": 31.16165561569819,
                "longitude": 121.40987435083788
            },
            {
                "id": 863132788,
                "name": "西部第一学生宿舍",
                "type": "nan",
                "latitude": 31.16097255,
                "longitude": 121.41098365
            },
            {
                "id": 863132789,
                "name": "西十一宿舍楼",
                "type": "nan",
                "latitude": 31.161044850000007,
                "longitude": 121.4092764
            },
            {
                "id": 863132790,
                "name": "西十二宿舍楼",
                "type": "nan",
                "latitude": 31.160744150000003,
                "longitude": 121.4093247
            },
            {
                "id": 863132791,
                "name": "西十三宿舍楼",
                "type": "nan",
                "latitude": 31.160445950000003,
                "longitude": 121.40939630000004
            },
            {
                "id": 863132792,
                "name": "西十四宿舍楼",
                "type": "nan",
                "latitude": 31.160541973203138,
                "longitude": 121.4099122992721
            },
            {
                "id": 863132793,
                "name": "西部第六学生宿舍",
                "type": "nan",
                "latitude": 31.160652046986854,
                "longitude": 121.41045102823378
            },
            {
                "id": 863132794,
                "name": "西部第四学生宿舍",
                "type": "nan",
                "latitude": 31.16148555,
                "longitude": 121.41024469999998
            },
            {
                "id": 863132795,
                "name": "西部第五学生宿舍",
                "type": "nan",
                "latitude": 31.16103040000001,
                "longitude": 121.4103309
            },
            {
                "id": 929693665,
                "name": "紫薇苑食堂",
                "type": "nan",
                "latitude": 31.163190757551995,
                "longitude": 121.41880768591017
            }
        ]
    }
}