{
    "id": -1098036493137784986,
    "name": "同濟大學",
    "address": "中国上海市闸北区中山北路共和新路1238号 邮政编码: 200070",
    "rating": 4.7,
    "popularity": 64,
    "data_path": "map_data/university_map/Tongji_University",
    "description": "同济大学（英語：Tongji University），简称同济，是位于中国上海市的一所综合性大学，是中华人民共和国教育部直属的全国重点大学，行政级别为正厅级（党委书记、校长高配副部级），是“双一流A类”和原“985工程”、原“211工程”重点建设大学，同时是卓越大学联盟、全球环境与可持续发展合作联盟(GUPES)、国际设计艺术院校联盟(Cumulus)、21世纪学术联盟(AC21)、同济-伯克利工程联盟(Tongji-Berkeley Alliance)、中俄工科大学联盟(ASRTU)成员。\n同济大学的前身是1907年创办的德文医学堂，后改名为同济德文医学堂；1912年与创办不久的同济德文工学堂合并，更名为同济德文医工学堂；1923年正式定名为同济大学；1927年成立国立同济大学，是中国最早的七所国立大学之一；1949年更名为同济大学。\n同济大学目前共设有38个学院（系）和二级办学机构，7家附属医院，5所附属中学；有全日制本科生1.7万余人，硕士研究生1.3万余人，博士研究生近5000人。有外国留学生数千人；学校占地面积约3850亩；纸本图书400余万册。\n\n根据2024年的QS世界大学排名和泰晤士高等教育世界大学排名，同济大学分別位列中国第九和第十三。\n\n",
    "images": [
        "https://upload.wikimedia.org/wikipedia/commons/0/0b/Platopainting.jpg",
        "https://upload.wikimedia.org/wikipedia/commons/6/6f/Tongji_guolizhu_1280px.jpg",
        "https://upload.wikimedia.org/wikipedia/commons/2/26/Tongji_huabiao.jpg"
    ],
    "amenity": {
        "affiliation": -1098036493137784986,
        "amenity_list": [
            {
                "id": 625196843,
                "name": "第五街咖啡馆",
                "type": "cafe",
                "latitude": 31.2855685,
                "longitude": 121.4958143
            },
            {
                "id": 1393527011,
                "name": "大礼堂停车场",
                "type": "parking",
                "latitude": 31.287288,
                "longitude": 121.4953031
            },
            {
                "id": 1393536143,
                "name": "三好坞",
                "type": "shelter",
                "latitude": 31.2874872,
                "longitude": 121.4984496
            },
            {
                "id": 3823819552,
                "name": "南苑饮食广场",
                "type": "restaurant",
                "latitude": 31.28093,
                "longitude": 121.4949072
            },
            {
                "id": 3823819553,
                "name": "南校区小剧场",
                "type": "theatre",
                "latitude": 31.2808269,
                "longitude": 121.4950091
            },
            {
                "id": 4279565296,
                "name": "中德学部停车场入口",
                "type": "parking",
                "latitude": 31.283612,
                "longitude": 121.4955001
            },
            {
                "id": 4279565297,
                "name": "同济大学德文图书馆",
                "type": "library",
                "latitude": 31.2832773,
                "longitude": 121.4959614
            },
            {
                "id": 5680853285,
                "name": "可能感兴趣的地点",
                "type": "bar",
                "latitude": 31.2857751,
                "longitude": 121.4977254
            },
            {
                "id": 6817411785,
                "name": "麦当劳",
                "type": "fast_food",
                "latitude": 31.2839097,
                "longitude": 121.5025554
            },
            {
                "id": 7507463491,
                "name": "同济大学图书馆",
                "type": "library",
                "latitude": 31.2855352,
                "longitude": 121.4994129
            },
            {
                "id": 49263174,
                "name": "同济图书馆",
                "type": "library",
                "latitude": 31.28540416958971,
                "longitude": 121.4994920605641
            },
            {
                "id": 125461261,
                "name": "西苑饮食广场",
                "type": "restaurant",
                "latitude": 31.28499592195206,
                "longitude": 121.49353654656497
            },
            {
                "id": 125465023,
                "name": "同济大礼堂",
                "type": "townhall",
                "latitude": 31.287129251524032,
                "longitude": 121.495753682158
            },
            {
                "id": 181555254,
                "name": "三好坞餐厅",
                "type": "restaurant",
                "latitude": 31.287513357666985,
                "longitude": 121.4995649096369
            },
            {
                "id": 183383957,
                "name": "学苑饮食广场",
                "type": "restaurant",
                "latitude": 31.284461400533495,
                "longitude": 121.49848158286323
            },
            {
                "id": 183383976,
                "name": "同济图书馆南区",
                "type": "library",
                "latitude": 31.285238594213517,
                "longitude": 121.49943047999888
            },
            {
                "id": 183383977,
                "name": "同济图书馆北区",
                "type": "library",
                "latitude": 31.285526901221743,
                "longitude": 121.49959945488271
            },
            {
                "id": 183964066,
                "name": "西北食堂",
                "type": "restaurant",
                "latitude": 31.288445901919022,
                "longitude": 121.49633983998557
            },
            {
                "id": 188231251,
                "name": "同济大学校医院",
                "type": "hospital",
                "latitude": 31.282694312507463,
                "longitude": 121.49640312448025
            },
            {
                "id": 406761638,
                "name": "北苑食堂",
                "type": "restaurant",
                "latitude": 31.288948395639494,
                "longitude": 121.49621574269395
            },
            {
                "id": 406761639,
                "name": "音乐广场",
                "type": "fountain",
                "latitude": 31.285356785838108,
                "longitude": 121.49566992271083
            },
            {
                "id": 125456038,
                "name": "生态楼",
                "type": "nan",
                "latitude": 31.28668974947641,
                "longitude": 121.49280365326067
            },
            {
                "id": 125456039,
                "name": "工程中心",
                "type": "nan",
                "latitude": 31.28654415656236,
                "longitude": 121.49238605871696
            },
            {
                "id": 125456040,
                "name": "明净楼",
                "type": "nan",
                "latitude": 31.286113897000266,
                "longitude": 121.49276270974094
            },
            {
                "id": 125465017,
                "name": "同济大学游泳馆",
                "type": "nan",
                "latitude": 31.282923712953867,
                "longitude": 121.49736644968839
            },
            {
                "id": 181555241,
                "name": "同济大学中德学部",
                "type": "nan",
                "latitude": 31.283385193956157,
                "longitude": 121.49579451044862
            },
            {
                "id": 181555253,
                "name": "综合楼",
                "type": "nan",
                "latitude": 31.286345243077317,
                "longitude": 121.5023120958856
            },
            {
                "id": 183383457,
                "name": "同济大学人文学院",
                "type": "nan",
                "latitude": 31.283028492341472,
                "longitude": 121.49551021564979
            },
            {
                "id": 183383460,
                "name": "红楼（B楼）",
                "type": "nan",
                "latitude": 31.28732158965648,
                "longitude": 121.50044171400953
            },
            {
                "id": 183383461,
                "name": "西南一楼",
                "type": "nan",
                "latitude": 31.285766718560794,
                "longitude": 121.4948449421444
            },
            {
                "id": 183383462,
                "name": "文远楼（A楼）",
                "type": "nan",
                "latitude": 31.286966810004078,
                "longitude": 121.49983529725677
            },
            {
                "id": 183383464,
                "name": "同济大学中法中心",
                "type": "nan",
                "latitude": 31.282941297986685,
                "longitude": 121.500670970113
            },
            {
                "id": 183383471,
                "name": "城规学院C楼",
                "type": "nan",
                "latitude": 31.287037299999998,
                "longitude": 121.50130944999997
            },
            {
                "id": 183383472,
                "name": "教学南楼",
                "type": "nan",
                "latitude": 31.28450008650719,
                "longitude": 121.49966244026606
            },
            {
                "id": 183383473,
                "name": "西南二楼",
                "type": "nan",
                "latitude": 31.28436280522954,
                "longitude": 121.49596125020895
            },
            {
                "id": 183383474,
                "name": "教学北楼",
                "type": "nan",
                "latitude": 31.28591482690457,
                "longitude": 121.50039416934939
            },
            {
                "id": 183383475,
                "name": "城规学院D楼",
                "type": "nan",
                "latitude": 31.286751149999994,
                "longitude": 121.50100565
            },
            {
                "id": 183383476,
                "name": "教育超市",
                "type": "nan",
                "latitude": 31.285053819153145,
                "longitude": 121.49545009844367
            },
            {
                "id": 183383477,
                "name": "同济大学校史馆",
                "type": "nan",
                "latitude": 31.285692068706304,
                "longitude": 121.50223728443251
            },
            {
                "id": 183383480,
                "name": "汇文楼",
                "type": "nan",
                "latitude": 31.286431185731566,
                "longitude": 121.50085153109514
            },
            {
                "id": 183383481,
                "name": "学五楼",
                "type": "nan",
                "latitude": 31.288363291491084,
                "longitude": 121.4980858144723
            },
            {
                "id": 183383482,
                "name": "129礼堂",
                "type": "nan",
                "latitude": 31.28329964165338,
                "longitude": 121.49982607968357
            },
            {
                "id": 183383952,
                "name": "解放楼",
                "type": "nan",
                "latitude": 31.28405700551759,
                "longitude": 121.49786845286101
            },
            {
                "id": 183383954,
                "name": "瑞安楼",
                "type": "nan",
                "latitude": 31.28676115022472,
                "longitude": 121.49802706753957
            },
            {
                "id": 183383962,
                "name": "测绘与地理信息学院",
                "type": "nan",
                "latitude": 31.284817637591182,
                "longitude": 121.49780254828589
            },
            {
                "id": 183383966,
                "name": "青年楼",
                "type": "nan",
                "latitude": 31.28447750478856,
                "longitude": 121.49787133071962
            },
            {
                "id": 183388116,
                "name": "西南七楼",
                "type": "nan",
                "latitude": 31.28398492903853,
                "longitude": 121.49564530438975
            },
            {
                "id": 183388117,
                "name": "西南八楼",
                "type": "nan",
                "latitude": 31.284300053317043,
                "longitude": 121.4950107655552
            },
            {
                "id": 183388118,
                "name": "西南九楼",
                "type": "nan",
                "latitude": 31.284627791045626,
                "longitude": 121.49435178824945
            },
            {
                "id": 183388119,
                "name": "同济大学生健身中心",
                "type": "nan",
                "latitude": 31.284685318653786,
                "longitude": 121.4930565590991
            },
            {
                "id": 183388124,
                "name": "西南三楼",
                "type": "nan",
                "latitude": 31.284866516177015,
                "longitude": 121.49515568702823
            },
            {
                "id": 183388126,
                "name": "干训楼",
                "type": "nan",
                "latitude": 31.283783408532496,
                "longitude": 121.49605815076701
            },
            {
                "id": 183388127,
                "name": "同济大学设计与创意学院",
                "type": "nan",
                "latitude": 31.28368656620441,
                "longitude": 121.50222586967213
            },
            {
                "id": 183964056,
                "name": "西北三楼",
                "type": "nan",
                "latitude": 31.288036627014083,
                "longitude": 121.49485189859426
            },
            {
                "id": 183964063,
                "name": "西北五楼",
                "type": "nan",
                "latitude": 31.288795516535888,
                "longitude": 121.49543977646687
            },
            {
                "id": 183964064,
                "name": "西北四楼",
                "type": "nan",
                "latitude": 31.28848648923937,
                "longitude": 121.49517186777331
            },
            {
                "id": 184542420,
                "name": "同济大学医学院",
                "type": "nan",
                "latitude": 31.283481033811096,
                "longitude": 121.49693851217226
            },
            {
                "id": 184542424,
                "name": "逸夫楼",
                "type": "nan",
                "latitude": 31.284121318516366,
                "longitude": 121.50120875508196
            },
            {
                "id": 184544230,
                "name": "同济大学土木工程学院",
                "type": "nan",
                "latitude": 31.28330018888544,
                "longitude": 121.4947494951203
            },
            {
                "id": 189478409,
                "name": "三好坞餐厅",
                "type": "restaurant",
                "latitude": 31.287368700000002,
                "longitude": 121.49928740000001
            },
            {
                "id": 379035415,
                "name": "滑冰场",
                "type": "nan",
                "latitude": 31.2827002109151,
                "longitude": 121.49785348006323
            },
            {
                "id": 379036008,
                "name": "同济大学中德职业技能认证研究中心",
                "type": "nan",
                "latitude": 31.28121924242376,
                "longitude": 121.49436790189837
            },
            {
                "id": 379036009,
                "name": "南校区第一教学楼",
                "type": "nan",
                "latitude": 31.28047496924043,
                "longitude": 121.49418838580311
            },
            {
                "id": 380537300,
                "name": "大学生活动中心",
                "type": "nan",
                "latitude": 31.2860922325237,
                "longitude": 121.49580200008167
            },
            {
                "id": 380537301,
                "name": "经纬楼",
                "type": "nan",
                "latitude": 31.285941605613626,
                "longitude": 121.49624267119913
            },
            {
                "id": 380537304,
                "name": "同济大学科技园",
                "type": "nan",
                "latitude": 31.282179542490823,
                "longitude": 121.4959120055501
            },
            {
                "id": 380537307,
                "name": "大学生创业园",
                "type": "nan",
                "latitude": 31.28186920427163,
                "longitude": 121.49586731466688
            },
            {
                "id": 380537308,
                "name": "西南十楼A楼",
                "type": "nan",
                "latitude": 31.281685756792854,
                "longitude": 121.49578383088672
            },
            {
                "id": 380537309,
                "name": "西南十楼B楼",
                "type": "nan",
                "latitude": 31.281480476555508,
                "longitude": 121.49566706273734
            },
            {
                "id": 380537313,
                "name": "西南十一楼",
                "type": "nan",
                "latitude": 31.281244894122715,
                "longitude": 121.49547035014935
            },
            {
                "id": 380537315,
                "name": "国际文化交流学院",
                "type": "nan",
                "latitude": 31.282313281217196,
                "longitude": 121.49474542757218
            },
            {
                "id": 380537318,
                "name": "同济大学文档制作中心",
                "type": "nan",
                "latitude": 31.280650621295035,
                "longitude": 121.49537469095421
            },
            {
                "id": 380537320,
                "name": "同济大学德国学术中心",
                "type": "nan",
                "latitude": 31.282620700869494,
                "longitude": 121.49473156714541
            },
            {
                "id": 380537322,
                "name": "同济大学职业技术教育研究所",
                "type": "nan",
                "latitude": 31.280229644477522,
                "longitude": 121.4950905724584
            },
            {
                "id": 380537323,
                "name": "同济印刷厂",
                "type": "nan",
                "latitude": 31.28048770450582,
                "longitude": 121.49372180277122
            },
            {
                "id": 381876810,
                "name": "同济大学博士生公寓1号楼",
                "type": "nan",
                "latitude": 31.285891331872268,
                "longitude": 121.49219299317674
            },
            {
                "id": 404187384,
                "name": "空间信息科学及可持续发展应用中心",
                "type": "nan",
                "latitude": 31.28513532396797,
                "longitude": 121.4980542560509
            },
            {
                "id": 406761637,
                "name": "留学生宿舍",
                "type": "nan",
                "latitude": 31.28772966687698,
                "longitude": 121.49928924484642
            },
            {
                "id": 429244211,
                "name": "同济大学经济与管理学院",
                "type": "nan",
                "latitude": 31.284606749999995,
                "longitude": 121.50279255
            },
            {
                "id": 490938777,
                "name": "同济大学快递服务中心",
                "type": "nan",
                "latitude": 31.284479455074283,
                "longitude": 121.49337746913524
            },
            {
                "id": 568719421,
                "name": "西南十二楼",
                "type": "nan",
                "latitude": 31.280662938268197,
                "longitude": 121.49578907076888
            }
        ]
    }
}