{
    "id": 1068360718626952904,
    "name": "中国矿业大学",
    "address": "中国北京市海淀区五道口 邮政编码: 100083",
    "rating": 4,
    "popularity": 60,
    "data_path": "map_data/university_map/China_University_of_Mining_and_Technology",
    "description": "中国矿业大学，简称矿大，是一所以工科为主、以矿业为特色的教育部直属大学，是首批进入中国国家“211工程”和“优势学科创新平台项目”的重点大學，首批世界一流学科建设高校。前身为1909年创校于河南焦作的焦作路矿学堂，目前位于江苏省徐州市。\n\n",
    "images": [
        "https://upload.wikimedia.org/wikipedia/zh/f/fa/CUMT_logo.jpg"
    ],
    "amenity": {
        "affiliation": 1068360718626952904,
        "amenity_list": [
            {
                "id": 2784769537,
                "name": "艺术学院",
                "type": "college",
                "latitude": 34.2199654,
                "longitude": 117.1424103
            },
            {
                "id": 2784769981,
                "name": "计算机学院",
                "type": "college",
                "latitude": 34.2182734,
                "longitude": 117.140918
            },
            {
                "id": 2784771230,
                "name": "安全学院",
                "type": "college",
                "latitude": 34.2180312,
                "longitude": 117.1414602
            },
            {
                "id": 2784779714,
                "name": "南湖校医务室",
                "type": "hospital",
                "latitude": 34.2140775,
                "longitude": 117.1317304
            },
            {
                "id": 8647719837,
                "name": "孙越崎学院",
                "type": "college",
                "latitude": 34.2186611,
                "longitude": 117.1411785
            },
            {
                "id": 273646146,
                "name": "一食堂",
                "type": "restaurant",
                "latitude": 34.216704674023866,
                "longitude": 117.13542327780772
            },
            {
                "id": 273646232,
                "name": "二食堂",
                "type": "restaurant",
                "latitude": 34.21477944184332,
                "longitude": 117.13344731664208
            },
            {
                "id": 273647067,
                "name": "三食堂",
                "type": "restaurant",
                "latitude": 34.21215153137149,
                "longitude": 117.13463133965445
            },
            {
                "id": 6759054,
                "name": "中国矿业大学图书馆",
                "type": "library",
                "latitude": 34.216464748268635,
                "longitude": 117.13907769107477
            },
            {
                "id": 2784763805,
                "name": "公共教学五区",
                "type": "nan",
                "latitude": 34.2131178,
                "longitude": 117.139183
            },
            {
                "id": 273646057,
                "name": "桃一宿舍楼",
                "type": "nan",
                "latitude": 34.21866180971348,
                "longitude": 117.13793175709228
            },
            {
                "id": 273646958,
                "name": "研究生2号宿舍楼",
                "type": "nan",
                "latitude": 34.210367935941385,
                "longitude": 117.13455469670065
            },
            {
                "id": 273646960,
                "name": "研究生1号宿舍楼",
                "type": "nan",
                "latitude": 34.21104055480852,
                "longitude": 117.13457134409755
            },
            {
                "id": 273647303,
                "name": "公共教学三区",
                "type": "nan",
                "latitude": 34.21361956373606,
                "longitude": 117.13679847118182
            },
            {
                "id": 273647453,
                "name": "公共教学四区",
                "type": "nan",
                "latitude": 34.212969783053005,
                "longitude": 117.13798603826734
            },
            {
                "id": 273647464,
                "name": "公共教学五区",
                "type": "nan",
                "latitude": 34.213011399007954,
                "longitude": 117.13934558054305
            },
            {
                "id": 273647502,
                "name": "镜湖讲堂",
                "type": "nan",
                "latitude": 34.21268128138353,
                "longitude": 117.13701282026263
            },
            {
                "id": 341389394,
                "name": "环测学院",
                "type": "nan",
                "latitude": 34.218455529913605,
                "longitude": 117.14513406384087
            },
            {
                "id": 457409362,
                "name": "化工学院",
                "type": "nan",
                "latitude": 34.217555315056025,
                "longitude": 117.14473357625181
            },
            {
                "id": 457409364,
                "name": "机电学院",
                "type": "nan",
                "latitude": 34.216661526561516,
                "longitude": 117.14383879793488
            },
            {
                "id": 457409365,
                "name": "信电学院",
                "type": "nan",
                "latitude": 34.215645663361826,
                "longitude": 117.14271644916182
            },
            {
                "id": 457409367,
                "name": "管理学院",
                "type": "nan",
                "latitude": 34.21649857338707,
                "longitude": 117.14196983762776
            },
            {
                "id": 457409371,
                "name": "材料学院",
                "type": "nan",
                "latitude": 34.217371696097935,
                "longitude": 117.14272050478257
            },
            {
                "id": 457409374,
                "name": "博物馆",
                "type": "nan",
                "latitude": 34.21945896135057,
                "longitude": 117.143799352408
            },
            {
                "id": 457409376,
                "name": "能源学院",
                "type": "nan",
                "latitude": 34.219075287654924,
                "longitude": 117.1451078653785
            },
            {
                "id": 457409377,
                "name": "资源学院",
                "type": "nan",
                "latitude": 34.219570483077334,
                "longitude": 117.14516500606618
            },
            {
                "id": 457409427,
                "name": "马克思主义学院",
                "type": "nan",
                "latitude": 34.219057351814946,
                "longitude": 117.14185321723525
            },
            {
                "id": 457409428,
                "name": "文法外文学院",
                "type": "nan",
                "latitude": 34.2194611064495,
                "longitude": 117.14213149047217
            },
            {
                "id": 927170642,
                "name": "研究生宿舍楼",
                "type": "nan",
                "latitude": 34.209302371289496,
                "longitude": 117.1336651895385
            },
            {
                "id": 927170643,
                "name": "力行楼",
                "type": "nan",
                "latitude": 34.20911453826921,
                "longitude": 117.13539521715721
            },
            {
                "id": 932901061,
                "name": "体育学院",
                "type": "nan",
                "latitude": 34.22042840459967,
                "longitude": 117.13693131105471
            },
            {
                "id": 6759027,
                "name": "竹三宿舍楼",
                "type": "nan",
                "latitude": 34.21310995536805,
                "longitude": 117.1342621002185
            },
            {
                "id": 6759028,
                "name": "竹四宿舍楼",
                "type": "nan",
                "latitude": 34.21309981129,
                "longitude": 117.13298009874856
            },
            {
                "id": 6759029,
                "name": "竹一宿舍楼",
                "type": "nan",
                "latitude": 34.21389181969172,
                "longitude": 117.13426858930751
            },
            {
                "id": 6759030,
                "name": "竹二宿舍楼",
                "type": "nan",
                "latitude": 34.21388515294773,
                "longitude": 117.13300468277872
            },
            {
                "id": 6759031,
                "name": "桃四宿舍楼",
                "type": "nan",
                "latitude": 34.21712037009289,
                "longitude": 117.13713697457939
            },
            {
                "id": 6759032,
                "name": "松二宿舍楼",
                "type": "nan",
                "latitude": 34.21611026550875,
                "longitude": 117.13432263463193
            },
            {
                "id": 6759033,
                "name": "松四宿舍楼",
                "type": "nan",
                "latitude": 34.215589012695524,
                "longitude": 117.13383327579899
            },
            {
                "id": 6759034,
                "name": "松一宿舍楼",
                "type": "nan",
                "latitude": 34.215669797449046,
                "longitude": 117.13498669676648
            },
            {
                "id": 6759035,
                "name": "松三宿舍楼",
                "type": "nan",
                "latitude": 34.215114585169786,
                "longitude": 117.13453239656832
            },
            {
                "id": 6759036,
                "name": "行政楼",
                "type": "nan",
                "latitude": 34.21450543930634,
                "longitude": 117.14383614196763
            },
            {
                "id": 6759037,
                "name": "建工学院",
                "type": "nan",
                "latitude": 34.218068560721775,
                "longitude": 117.1436501281675
            },
            {
                "id": 6759038,
                "name": "矿业科学中心",
                "type": "nan",
                "latitude": 34.21731598939946,
                "longitude": 117.14698817424757
            },
            {
                "id": 6759040,
                "name": "公共教学一区",
                "type": "nan",
                "latitude": 34.214718614711586,
                "longitude": 117.1369473878573
            },
            {
                "id": 6759041,
                "name": "公共教学二区",
                "type": "nan",
                "latitude": 34.21494915789642,
                "longitude": 117.13809102982728
            },
            {
                "id": 6759043,
                "name": "桃二宿舍楼",
                "type": "nan",
                "latitude": 34.21783826296833,
                "longitude": 117.13782956206614
            },
            {
                "id": 6759044,
                "name": "桃三宿舍楼",
                "type": "nan",
                "latitude": 34.21847097653973,
                "longitude": 117.1369507754735
            },
            {
                "id": 6759045,
                "name": "桃五宿舍楼",
                "type": "nan",
                "latitude": 34.21754272065338,
                "longitude": 117.13605736852983
            },
            {
                "id": 6759046,
                "name": "杏一宿舍楼",
                "type": "nan",
                "latitude": 34.215956430454355,
                "longitude": 117.1328292424042
            },
            {
                "id": 6759047,
                "name": "杏二宿舍楼",
                "type": "nan",
                "latitude": 34.21534744380803,
                "longitude": 117.13234790006054
            },
            {
                "id": 6759048,
                "name": "杏三宿舍楼",
                "type": "nan",
                "latitude": 34.21473166251736,
                "longitude": 117.13187271439628
            },
            {
                "id": 6759049,
                "name": "梅一宿舍楼",
                "type": "nan",
                "latitude": 34.21228935236397,
                "longitude": 117.1332521575365
            },
            {
                "id": 6759050,
                "name": "梅二宿舍楼",
                "type": "nan",
                "latitude": 34.21158080386167,
                "longitude": 117.13342782269025
            },
            {
                "id": 6759051,
                "name": "梅三宿舍楼",
                "type": "nan",
                "latitude": 34.210695695505954,
                "longitude": 117.13347728992261
            },
            {
                "id": 6759053,
                "name": "理学院",
                "type": "nan",
                "latitude": 34.21744627851601,
                "longitude": 117.14051449610116
            }
        ]
    }
}