{
    "id": 1451931834805050600,
    "name": "北京工业大学",
    "address": "中国北京市朝阳区 邮政编码: 100021",
    "rating": 4.7,
    "popularity": 80,
    "data_path": "map_data/university_map/Beijing_University_of_Technology",
    "description": "北京工业大学（英語：Beijing University of Technology，缩写：BJUT），简称北工大，创立于1960年，是一所以工学为主，理学、工学、文学、法学、经济学、管理学、教育学、艺术学相结合的综合性市属重点大学，于1981年成为国家教育部批准的第一批硕士学位授予单位，1985年成为博士学位授予单位，1996年通过国家“211工程”预审。2017年9月，学校正式进入国家一流学科建设高校行列。2020年8月，2020软科世界大学学术排名发布，北京工业大学首次进入全球500强。2021年，工程学，材料科学，化学，环境科学与生态学、计算机科学、生物学与生物化学共6个学科进入ESI前%1。现时为QS世界大学排名中国内地50强大学，是“双一流”和原“211工程”重点建设大学。\n北京工业大学共有平乐园、通州、中蓝、管庄、花园村、琉璃井和惠新东街7个校区，总占地约96.0151万平方米，其中平乐园校区为校本部，通州校区为大部分大一新生所在校区。学校定期出版《北京工业大学学报》《北京工业大学学报（社会科学版）》等学术刊物。\n校训是“不息为体，日新为道”，取自唐代哲学家刘禹锡的《问大钧赋》“以不息为体，以日新为道”。“不息”源自《周易》“乾”卦的象词“天行健，君子以自强不息”，“体”则有物质存在的状态、本体、本性、禀性之意；“日新”源自《尚书·盘铭》“苟日新，日日新，又日新”，“道”，则有本质、法则、规律、主张、宗旨之意。学校校花为海棠花，校树为银杏树。\n\n",
    "images": [
        "https://upload.wikimedia.org/wikipedia/commons/b/b9/BU_Tech.jpg",
        "https://upload.wikimedia.org/wikipedia/commons/0/00/BU_Tech2.jpg",
        "https://upload.wikimedia.org/wikipedia/commons/1/15/BU_Tech3.jpg",
        "https://upload.wikimedia.org/wikipedia/commons/b/b9/BU_Tech4.jpg",
        "https://upload.wikimedia.org/wikipedia/commons/a/a0/BU_Tech5.jpg",
        "https://upload.wikimedia.org/wikipedia/commons/d/dc/Beijing_University_of_Technology_Entrance.jpg",
        "https://upload.wikimedia.org/wikipedia/commons/e/e8/Beijing_University_of_Technology_Stadium.jpg",
        "https://upload.wikimedia.org/wikipedia/commons/0/0b/Platopainting.jpg",
        "https://upload.wikimedia.org/wikipedia/commons/6/6d/%E5%8C%97%E4%BA%AC%E5%B7%A5%E4%B8%9A%E5%A4%A7%E5%AD%A6%28%E9%80%9A%E5%B7%9E%E6%A0%A1%E5%8C%BA%29_%E6%93%8D%E5%9C%BA%E5%90%8E%E6%96%B9%E5%B0%8F%E8%B7%AF_01.jpg",
        "https://upload.wikimedia.org/wikipedia/commons/4/43/%E5%8C%97%E4%BA%AC%E5%B7%A5%E4%B8%9A%E5%A4%A7%E5%AD%A6_%E6%B1%B2%E5%AD%A6%E6%A5%BC_01.jpg"
    ],
    "amenity": {
        "affiliation": 1451931834805050600,
        "amenity_list": [
            {
                "id": 9630531988,
                "name": "瑞幸咖啡",
                "type": "cafe",
                "latitude": 39.8773698,
                "longitude": 116.4738381
            },
            {
                "id": 9665247356,
                "name": "北工大快递服务站",
                "type": "letter_box",
                "latitude": 39.875882,
                "longitude": 116.4759953
            },
            {
                "id": 9665247365,
                "name": "天天餐厅",
                "type": "restaurant",
                "latitude": 39.8774047,
                "longitude": 116.4740955
            },
            {
                "id": 9665247366,
                "name": "清真餐厅",
                "type": "restaurant",
                "latitude": 39.8775346,
                "longitude": 116.4744887
            },
            {
                "id": 10734051842,
                "name": "可能感兴趣的地点",
                "type": "letter_box",
                "latitude": 39.8734313,
                "longitude": 116.4809831
            },
            {
                "id": 11252295998,
                "name": "3教401",
                "type": "love_hotel",
                "latitude": 39.8741751,
                "longitude": 116.4745536
            },
            {
                "id": 442376441,
                "name": "奥运餐厅",
                "type": "restaurant",
                "latitude": 39.87257249707679,
                "longitude": 116.47553892488871
            },
            {
                "id": 442376464,
                "name": "美食园",
                "type": "restaurant",
                "latitude": 39.87264769693249,
                "longitude": 116.47472339957909
            },
            {
                "id": 543815679,
                "name": "北工大北图书馆",
                "type": "library",
                "latitude": 39.87660145312947,
                "longitude": 116.47439529856021
            },
            {
                "id": 543815681,
                "name": "北工大礼堂",
                "type": "theatre",
                "latitude": 39.87608699999999,
                "longitude": 116.47487699999998
            },
            {
                "id": 839812059,
                "name": "逸夫图书馆",
                "type": "library",
                "latitude": 39.87365007434337,
                "longitude": 116.47361944929433
            },
            {
                "id": 1047336481,
                "name": "北区浴室",
                "type": "public_bath",
                "latitude": 39.87729562057581,
                "longitude": 116.47600856246487
            },
            {
                "id": 1047336482,
                "name": "南区浴室",
                "type": "public_bath",
                "latitude": 39.87292865508632,
                "longitude": 116.47643398383717
            },
            {
                "id": 320605372,
                "name": "科学楼",
                "type": "nan",
                "latitude": 39.8718689979462,
                "longitude": 116.47359152495872
            },
            {
                "id": 438877647,
                "name": "北京工业大学体育馆",
                "type": "nan",
                "latitude": 39.87112269260304,
                "longitude": 116.47755453639219
            },
            {
                "id": 442376433,
                "name": "知新园",
                "type": "nan",
                "latitude": 39.87367392534581,
                "longitude": 116.47461841052788
            },
            {
                "id": 442376435,
                "name": "经管楼",
                "type": "nan",
                "latitude": 39.87210015585535,
                "longitude": 116.47203545689145
            },
            {
                "id": 442376437,
                "name": "人文楼",
                "type": "nan",
                "latitude": 39.87086635321351,
                "longitude": 116.47525587512654
            },
            {
                "id": 442376439,
                "name": "学生宿舍7号楼",
                "type": "nan",
                "latitude": 39.87373717483058,
                "longitude": 116.47564095844831
            },
            {
                "id": 442376443,
                "name": "学生宿舍6号楼",
                "type": "nan",
                "latitude": 39.87161884856856,
                "longitude": 116.47508132513559
            },
            {
                "id": 442376445,
                "name": "学生宿舍8号楼",
                "type": "nan",
                "latitude": 39.8733356,
                "longitude": 116.4756355
            },
            {
                "id": 442376447,
                "name": "北京工业大学第三教学楼",
                "type": "nan",
                "latitude": 39.874129113941805,
                "longitude": 116.47519744522376
            },
            {
                "id": 442376449,
                "name": "信息楼东",
                "type": "nan",
                "latitude": 39.87347027484395,
                "longitude": 116.47271294574404
            },
            {
                "id": 442376453,
                "name": "学生宿舍5号楼",
                "type": "nan",
                "latitude": 39.87200972361773,
                "longitude": 116.47508062409632
            },
            {
                "id": 442376455,
                "name": "学生宿舍9号楼",
                "type": "nan",
                "latitude": 39.87308129213583,
                "longitude": 116.47450774522217
            },
            {
                "id": 442376457,
                "name": "学生宿舍12号楼",
                "type": "nan",
                "latitude": 39.87294643200729,
                "longitude": 116.47563817878562
            },
            {
                "id": 442376462,
                "name": "信息楼",
                "type": "nan",
                "latitude": 39.87346281837288,
                "longitude": 116.47232236258735
            },
            {
                "id": 442376586,
                "name": "城建楼",
                "type": "nan",
                "latitude": 39.87180743364528,
                "longitude": 116.48045076492093
            },
            {
                "id": 442376587,
                "name": "软件楼",
                "type": "nan",
                "latitude": 39.87228644765843,
                "longitude": 116.48073515254
            },
            {
                "id": 442376588,
                "name": "实训楼",
                "type": "nan",
                "latitude": 39.87134019299224,
                "longitude": 116.4800027177225
            },
            {
                "id": 442376589,
                "name": "理科楼",
                "type": "nan",
                "latitude": 39.87417205,
                "longitude": 116.48011095
            },
            {
                "id": 442376590,
                "name": "艺术楼",
                "type": "nan",
                "latitude": 39.8733593,
                "longitude": 116.47894174999999
            },
            {
                "id": 442376591,
                "name": "环能楼",
                "type": "nan",
                "latitude": 39.87312955,
                "longitude": 116.48010690000002
            },
            {
                "id": 442376592,
                "name": "生命楼",
                "type": "nan",
                "latitude": 39.873661548023286,
                "longitude": 116.48022682529353
            },
            {
                "id": 442376594,
                "name": "北工大第四教学楼",
                "type": "nan",
                "latitude": 39.87418263024545,
                "longitude": 116.47866332999196
            },
            {
                "id": 543815682,
                "name": "工大团委楼 工大人武部",
                "type": "nan",
                "latitude": 39.876086449999995,
                "longitude": 116.4752863
            },
            {
                "id": 543815688,
                "name": "北工大第一教学楼",
                "type": "nan",
                "latitude": 39.87669038255062,
                "longitude": 116.4727059824603
            },
            {
                "id": 543815689,
                "name": "北工大第二教学楼",
                "type": "nan",
                "latitude": 39.87603416874892,
                "longitude": 116.47212612484385
            },
            {
                "id": 543815690,
                "name": "材料楼",
                "type": "nan",
                "latitude": 39.87538342571892,
                "longitude": 116.4726749741773
            },
            {
                "id": 543815691,
                "name": "数理楼",
                "type": "nan",
                "latitude": 39.87535437507324,
                "longitude": 116.474263048588
            },
            {
                "id": 543940615,
                "name": "学生宿舍10 11号楼",
                "type": "nan",
                "latitude": 39.876861125435084,
                "longitude": 116.47644709736822
            },
            {
                "id": 543940618,
                "name": "学生宿舍3号楼",
                "type": "nan",
                "latitude": 39.87781749804143,
                "longitude": 116.47524757463965
            },
            {
                "id": 543940619,
                "name": "学生宿舍4号楼",
                "type": "nan",
                "latitude": 39.87744052469894,
                "longitude": 116.47522748894568
            },
            {
                "id": 543940621,
                "name": "金工楼",
                "type": "nan",
                "latitude": 39.87732927949662,
                "longitude": 116.47664755834943
            },
            {
                "id": 543940625,
                "name": "北工大校医院",
                "type": "nan",
                "latitude": 39.87785051712578,
                "longitude": 116.47601478031929
            },
            {
                "id": 839812060,
                "name": "学生宿舍2号楼",
                "type": "nan",
                "latitude": 39.87750635275618,
                "longitude": 116.4727673452891
            },
            {
                "id": 839812061,
                "name": "学生综合服务楼",
                "type": "nan",
                "latitude": 39.87764485,
                "longitude": 116.47417960000001
            },
            {
                "id": 852324685,
                "name": "学生宿舍13号楼",
                "type": "nan",
                "latitude": 39.87628085666528,
                "longitude": 116.47789698580043
            },
            {
                "id": 852324686,
                "name": "学生宿舍14号楼",
                "type": "nan",
                "latitude": 39.87595899350836,
                "longitude": 116.47800867538065
            },
            {
                "id": 1047352408,
                "name": "能源楼",
                "type": "nan",
                "latitude": 39.87506069494203,
                "longitude": 116.47801984775691
            },
            {
                "id": 1047352412,
                "name": "保卫处",
                "type": "nan",
                "latitude": 39.87656382116053,
                "longitude": 116.47773708521672
            },
            {
                "id": 1047352421,
                "name": "学生宿舍1号楼",
                "type": "nan",
                "latitude": 39.877859852756174,
                "longitude": 116.47284764528911
            },
            {
                "id": 1051762778,
                "name": "绿色建筑技术中心",
                "type": "nan",
                "latitude": 39.87696792263275,
                "longitude": 116.47509196952588
            },
            {
                "id": 1051762780,
                "name": "智研楼",
                "type": "nan",
                "latitude": 39.877678662296915,
                "longitude": 116.47173842500604
            },
            {
                "id": 1051762781,
                "name": "地震研究所",
                "type": "nan",
                "latitude": 39.8769475717405,
                "longitude": 116.47399832057819
            },
            {
                "id": 1214956493,
                "name": "信北阶",
                "type": "nan",
                "latitude": 39.873817900000006,
                "longitude": 116.47286535000002
            }
        ]
    }
}