{
    "id": -2751932901194177686,
    "name": "河海大学",
    "address": "中国江苏省南京市鼓楼区西康路1号 邮政编码: 210098",
    "rating": 4.3,
    "popularity": 100,
    "data_path": "map_data/university_map/Hohai_University",
    "description": "河海大学位于中国江苏省南京市和常州市。是一所以水利为特色，工科为主，多学科协调发展的教育部直属全国重点大学，是实施国家“211工程”、“985工程优势学科创新平台”重点建设的高校之一。\n河海大学的前身可以追溯到1915年创建于南京的“河海工程专门学校”，是中国第一所培养水利人才的高等学府。1924年与国立东南大学工科合并成立河海工科大学，1927年并入国立第四中山大学，后更名为国立中央大学、南京大学。1952年南京大学水利系、交通大学水利系、同济大学土木系水利组、浙江大学土木系水利组以及华东水利专科学校合并成立“华东水利学院”。1960年被中共中央认定为全国重点大学。1985年恢复传统校名“河海大学”。\n河海大学现有教职工3500名，具有高级职称的教师1486名，博士生导师530名；现有中国工程院院士2名，双聘院士16名。国家杰出青年科学基金获得者6名，国家优秀青年科学基金获得者6名，“国家级教学名师奖”获得者3名，国家级有突出贡献的中青年专家7名，“百千万人才工程”国家级人选9名，教育部“新世纪优秀人才支持计划”入选者23名，教育部科技委学部委员2名，江苏省有突出贡献中青年专家10名，入选江苏省“333高层次人才培养工程”、江苏省高校“青蓝工程”等省级人才计划培养对象逾300人次。国家自然科学基金委创新群体1个，国家级教学团队2个，“江苏高等学校优秀科技创新团队”6个、江苏省哲学社会科学优秀创新团队2个，江苏省“双创计划”团队3个，“青蓝工程”科技创新团队8个、优秀教学团队2个，江苏省“六大人才高峰资助计划”创新人才团队1个。\n河海大学有水平较高的足球队，多次获得全国大学生足球联赛冠军。",
    "images": [],
    "amenity": {
        "affiliation": -2751932901194177686,
        "amenity_list": [
            {
                "id": 670930678,
                "name": "图书馆",
                "type": "library",
                "latitude": 32.05727235810113,
                "longitude": 118.75278134356056
            },
            {
                "id": 670930694,
                "name": "学生1食堂",
                "type": "restaurant",
                "latitude": 32.056074608631505,
                "longitude": 118.75213121094964
            },
            {
                "id": 670930695,
                "name": "学生2食堂",
                "type": "restaurant",
                "latitude": 32.05617662899514,
                "longitude": 118.7524656410066
            },
            {
                "id": 679932666,
                "name": "研究生餐厅",
                "type": "restaurant",
                "latitude": 32.05893891055713,
                "longitude": 118.75679428549397
            },
            {
                "id": 679932667,
                "name": "可能感兴趣的地点",
                "type": "parking",
                "latitude": 32.059115854718364,
                "longitude": 118.75660332773371
            },
            {
                "id": 216630148,
                "name": "科学会堂",
                "type": "nan",
                "latitude": 32.058586952904705,
                "longitude": 118.7543603146612
            },
            {
                "id": 273632541,
                "name": "北教",
                "type": "nan",
                "latitude": 32.05924615504891,
                "longitude": 118.75473867730612
            },
            {
                "id": 273632585,
                "name": "体育馆",
                "type": "nan",
                "latitude": 32.05968649323421,
                "longitude": 118.75318772063156
            },
            {
                "id": 273632592,
                "name": "严恺馆",
                "type": "nan",
                "latitude": 32.059082621138465,
                "longitude": 118.75346215082665
            },
            {
                "id": 474162620,
                "name": "河海馆",
                "type": "nan",
                "latitude": 32.05681378547947,
                "longitude": 118.75746260845084
            },
            {
                "id": 474162621,
                "name": "科学馆",
                "type": "nan",
                "latitude": 32.05973213473219,
                "longitude": 118.75424797144139
            },
            {
                "id": 475719191,
                "name": "水利水电工程学院",
                "type": "nan",
                "latitude": 32.05854841421467,
                "longitude": 118.75322037850543
            },
            {
                "id": 670930679,
                "name": "河海大学校医院",
                "type": "nan",
                "latitude": 32.055117528472756,
                "longitude": 118.75235622960295
            },
            {
                "id": 670930680,
                "name": "学生6舍",
                "type": "nan",
                "latitude": 32.05477912604772,
                "longitude": 118.75246761559993
            },
            {
                "id": 670930681,
                "name": "学生5舍",
                "type": "nan",
                "latitude": 32.05445522470037,
                "longitude": 118.75247818412473
            },
            {
                "id": 670930682,
                "name": "学生4舍",
                "type": "nan",
                "latitude": 32.05413459782443,
                "longitude": 118.75250422463822
            },
            {
                "id": 670930683,
                "name": "学生9舍",
                "type": "nan",
                "latitude": 32.054724449999995,
                "longitude": 118.75333285
            },
            {
                "id": 670930684,
                "name": "学生8舍",
                "type": "nan",
                "latitude": 32.054404522546136,
                "longitude": 118.75333886210278
            },
            {
                "id": 670930685,
                "name": "学生7舍",
                "type": "nan",
                "latitude": 32.0540823981998,
                "longitude": 118.75332442427847
            },
            {
                "id": 670930686,
                "name": "学生11舍",
                "type": "nan",
                "latitude": 32.05452705,
                "longitude": 118.75388180000002
            },
            {
                "id": 670930687,
                "name": "学生10舍",
                "type": "nan",
                "latitude": 32.05420169531955,
                "longitude": 118.75384632470222
            },
            {
                "id": 670930688,
                "name": "学生1舍",
                "type": "nan",
                "latitude": 32.05676588272965,
                "longitude": 118.75193988740232
            },
            {
                "id": 670930690,
                "name": "学生2舍",
                "type": "nan",
                "latitude": 32.05704826506613,
                "longitude": 118.75182397836672
            },
            {
                "id": 670930691,
                "name": "学生3舍",
                "type": "nan",
                "latitude": 32.057328316734996,
                "longitude": 118.75175612951938
            },
            {
                "id": 670930692,
                "name": "浴室",
                "type": "nan",
                "latitude": 32.05549451722466,
                "longitude": 118.7524074763694
            },
            {
                "id": 670930693,
                "name": "学生12舍",
                "type": "nan",
                "latitude": 32.05572308571737,
                "longitude": 118.75241866282684
            },
            {
                "id": 670930696,
                "name": "教育超市",
                "type": "nan",
                "latitude": 32.055793030860485,
                "longitude": 118.75218656171769
            },
            {
                "id": 691045608,
                "name": "科学馆",
                "type": "nan",
                "latitude": 32.0595603154936,
                "longitude": 118.75379083187656
            },
            {
                "id": 783604434,
                "name": "河海会堂",
                "type": "nan",
                "latitude": 32.05954721961815,
                "longitude": 118.7582347637551
            },
            {
                "id": 783604435,
                "name": "闻天馆",
                "type": "nan",
                "latitude": 32.0592594758752,
                "longitude": 118.75743267600113
            },
            {
                "id": 783605171,
                "name": "环境楼",
                "type": "nan",
                "latitude": 32.05834963482632,
                "longitude": 118.75541964719733
            },
            {
                "id": 783618059,
                "name": "小商店",
                "type": "nan",
                "latitude": 32.05522829855248,
                "longitude": 118.75275342530188
            },
            {
                "id": 814873661,
                "name": "信息馆",
                "type": "nan",
                "latitude": 32.05719989699259,
                "longitude": 118.75563711522382
            },
            {
                "id": 976239577,
                "name": "芝纶馆",
                "type": "nan",
                "latitude": 32.05890737406773,
                "longitude": 118.7558612339924
            }
        ]
    }
}