{
    "id": -8851126443867528915,
    "name": "西交利物浦大学",
    "address": "中国苏州市吴中区 邮政编码: 215000",
    "rating": 4.7,
    "popularity": 76,
    "data_path": "map_data/university_map/Xi'an_Jiaotong_Liverpool_University",
    "description": "西交利物浦大学（英語：Xi'an Jiaotong-Liverpool University），简称西浦（XJTLU），是一所成立于2006年的中外合作大学。其前身为2004年9月西安交通大学与利物浦大学签订协议合作成立的西交利物浦（国际）大学，后在2006年经中华人民共和国教育部批准，正式成为拥有独立法人地位的西交利物浦大学；西交利物浦大学于2012年经中国教育部获准同意实施利物浦大学的硕士学位和博士学位教育。\n西交利物浦大学位于江苏省苏州市工业园区独墅湖科教创新区，分为南校区与北校区两个校区。截至2023年，学校现有21000余国内外注册学生，近1000名教研人员；开设48个本科专业、44个硕士专业和16个博士研究方向，涵盖理学、工学、管理学、经济学、建筑、城市规划与设计、人文社科、影视等。\n在教学方面，西交利物浦大学大部分课程采用英文授课；本科毕业生可同时获得西交利物浦大学和利物浦大学的本科学位证书，以及西交利物浦大学本科毕业证书；研究生可获得中国教育部认可的利物浦大学学位。\n\n",
    "images": [
        "https://upload.wikimedia.org/wikipedia/commons/a/a9/South_Campus_of_XJTLU.jpg",
        "https://upload.wikimedia.org/wikipedia/commons/4/4c/XJTLU_Admin_Lib.JPG",
        "https://upload.wikimedia.org/wikipedia/commons/d/d6/XJTLU_campus_entrance_2013.JPG",
        "https://upload.wikimedia.org/wikipedia/commons/9/9f/Xi%27an_Jiaotong-Liverpool_University.jpg"
    ],
    "amenity": {
        "affiliation": -8851126443867528915,
        "amenity_list": [
            {
                "id": 6612881587,
                "name": "西交利物浦大学（南校区）",
                "type": "school",
                "latitude": 31.2712821,
                "longitude": 120.7359726
            },
            {
                "id": 9560049104,
                "name": "宏愿食堂",
                "type": "food_court",
                "latitude": 31.2721889,
                "longitude": 120.73604
            },
            {
                "id": 9560049105,
                "name": "西厅",
                "type": "restaurant",
                "latitude": 31.2726236,
                "longitude": 120.7364177
            },
            {
                "id": 9560049106,
                "name": "东厅",
                "type": "restaurant",
                "latitude": 31.2720752,
                "longitude": 120.7368447
            },
            {
                "id": 1036623717,
                "name": "可能感兴趣的地点",
                "type": "parking",
                "latitude": 31.271546618812437,
                "longitude": 120.73902872243065
            }
        ]
    }
}