{
    "id": -5083916818926964444,
    "name": "江南大学",
    "address": "中国江苏省无锡市滨湖区蠡湖大道1800号 邮政编码: 214126",
    "rating": 4.7,
    "popularity": 64,
    "data_path": "map_data/university_map/Jiangnan_University",
    "description": "江南大学是位于中华人民共和国江苏省无锡市的一所全日制公办本科大学。\n\n",
    "images": [
        "https://upload.wikimedia.org/wikipedia/commons/0/09/%E6%B1%9F%E5%8D%97%E5%A4%A7%E5%AD%A6_-_panoramio.jpg"
    ],
    "amenity": {
        "affiliation": -5083916818926964444,
        "amenity_list": [
            {
                "id": 2569266588,
                "name": "可能感兴趣的地点",
                "type": "fountain",
                "latitude": 31.484079,
                "longitude": 120.2704633
            },
            {
                "id": 2570948736,
                "name": "江南大学邮政支局",
                "type": "post_office",
                "latitude": 31.4833389,
                "longitude": 120.2711119
            },
            {
                "id": 2570948745,
                "name": "中国工商银行",
                "type": "bank",
                "latitude": 31.4834619,
                "longitude": 120.2711066
            },
            {
                "id": 289550980,
                "name": "第一食堂江南苑",
                "type": "restaurant",
                "latitude": 31.490724129071527,
                "longitude": 120.26685314810138
            },
            {
                "id": 521961180,
                "name": "第二食堂梁溪苑",
                "type": "restaurant",
                "latitude": 31.491713965008387,
                "longitude": 120.26118925245174
            },
            {
                "id": 250495210,
                "name": "体育中心",
                "type": "nan",
                "latitude": 31.48901692482254,
                "longitude": 120.2707743017849
            },
            {
                "id": 250497347,
                "name": "快递中心",
                "type": "nan",
                "latitude": 31.49095158471736,
                "longitude": 120.27209702895253
            },
            {
                "id": 250705615,
                "name": "行政楼",
                "type": "nan",
                "latitude": 31.483376728973997,
                "longitude": 120.27161154065554
            },
            {
                "id": 251285353,
                "name": "文浩馆",
                "type": "nan",
                "latitude": 31.484768201622103,
                "longitude": 120.27146458671795
            },
            {
                "id": 252224056,
                "name": "能源管理中心",
                "type": "nan",
                "latitude": 31.486576501950726,
                "longitude": 120.27209534414489
            },
            {
                "id": 252224352,
                "name": "第四食堂广溪苑",
                "type": "nan",
                "latitude": 31.478246699906098,
                "longitude": 120.27018749773045
            },
            {
                "id": 265001524,
                "name": "第三食堂（教工活动中心）",
                "type": "nan",
                "latitude": 31.479273091797573,
                "longitude": 120.26742441308195
            },
            {
                "id": 265002621,
                "name": "北美学院",
                "type": "nan",
                "latitude": 31.481370234031097,
                "longitude": 120.27184555062736
            },
            {
                "id": 265002895,
                "name": "法学院",
                "type": "nan",
                "latitude": 31.481652458616207,
                "longitude": 120.27109876611382
            },
            {
                "id": 265002896,
                "name": "马克思主义学院",
                "type": "nan",
                "latitude": 31.482014872282495,
                "longitude": 120.27142812969511
            },
            {
                "id": 289550968,
                "name": "活动中心",
                "type": "nan",
                "latitude": 31.489418500000003,
                "longitude": 120.26761664999998
            },
            {
                "id": 289550977,
                "name": "继续教育与网络教育学院",
                "type": "nan",
                "latitude": 31.490024428325004,
                "longitude": 120.26750228310058
            },
            {
                "id": 289552411,
                "name": "大学生活动中心",
                "type": "nan",
                "latitude": 31.48895842375689,
                "longitude": 120.2666939971254
            },
            {
                "id": 289552986,
                "name": "人文学院艺术系",
                "type": "nan",
                "latitude": 31.488579898928688,
                "longitude": 120.26679257581944
            },
            {
                "id": 289554840,
                "name": "设计学院",
                "type": "nan",
                "latitude": 31.488045399624657,
                "longitude": 120.26647129614075
            },
            {
                "id": 297988915,
                "name": "机械工程学院",
                "type": "nan",
                "latitude": 31.48682178102643,
                "longitude": 120.2650710818521
            },
            {
                "id": 521954161,
                "name": "第二教学楼",
                "type": "nan",
                "latitude": 31.481837930225332,
                "longitude": 120.26941412099265
            },
            {
                "id": 521954272,
                "name": "第一教学楼",
                "type": "nan",
                "latitude": 31.485175086763842,
                "longitude": 120.26971233132397
            },
            {
                "id": 521954375,
                "name": "逸夫楼",
                "type": "nan",
                "latitude": 31.486090954476335,
                "longitude": 120.26499506333502
            },
            {
                "id": 521954411,
                "name": "化工学院",
                "type": "nan",
                "latitude": 31.482189962745345,
                "longitude": 120.2650065026051
            },
            {
                "id": 521954785,
                "name": "食品学院",
                "type": "nan",
                "latitude": 31.48159781226284,
                "longitude": 120.26405720915072
            },
            {
                "id": 521954879,
                "name": "国家重点实验室",
                "type": "nan",
                "latitude": 31.48058552524835,
                "longitude": 120.26511698747083
            },
            {
                "id": 521954969,
                "name": "生物工程学院",
                "type": "nan",
                "latitude": 31.480888138826224,
                "longitude": 120.26426924816036
            },
            {
                "id": 521955061,
                "name": "生命科学与健康工程学院",
                "type": "nan",
                "latitude": 31.482472347880122,
                "longitude": 120.26371448699285
            },
            {
                "id": 521955210,
                "name": "粮食发酵工艺与技术国家工程实验室",
                "type": "nan",
                "latitude": 31.481803900058654,
                "longitude": 120.26235704154404
            },
            {
                "id": 521955271,
                "name": "协同创新中心",
                "type": "nan",
                "latitude": 31.48059130334629,
                "longitude": 120.26212370451952
            },
            {
                "id": 521958938,
                "name": "留学生公寓",
                "type": "nan",
                "latitude": 31.477291766698542,
                "longitude": 120.26890882754475
            },
            {
                "id": 521959014,
                "name": "理学院",
                "type": "nan",
                "latitude": 31.486561735011513,
                "longitude": 120.26935636261774
            },
            {
                "id": 521959384,
                "name": "纺织服装学院",
                "type": "nan",
                "latitude": 31.488285734261517,
                "longitude": 120.26505886311871
            },
            {
                "id": 521961007,
                "name": "物联网工程学院",
                "type": "nan",
                "latitude": 31.485764995736567,
                "longitude": 120.26664864794267
            },
            {
                "id": 521975589,
                "name": "商学院",
                "type": "nan",
                "latitude": 31.48091612291347,
                "longitude": 120.27153194548269
            },
            {
                "id": 521975842,
                "name": "人工智能与计算机学院",
                "type": "nan",
                "latitude": 31.480145420695145,
                "longitude": 120.27144131883746
            },
            {
                "id": 521977160,
                "name": "外国语学院",
                "type": "nan",
                "latitude": 31.48170119651624,
                "longitude": 120.2716406609805
            },
            {
                "id": 1059395554,
                "name": "Xie's Home",
                "type": "nan",
                "latitude": 31.478891631304847,
                "longitude": 120.27007079989856
            },
            {
                "id": 1059395556,
                "name": "青教公寓",
                "type": "nan",
                "latitude": 31.49075075030921,
                "longitude": 120.270541052479
            },
            {
                "id": 1059395559,
                "name": "实验物资与危险品仓库",
                "type": "nan",
                "latitude": 31.487902655863493,
                "longitude": 120.262211309091
            },
            {
                "id": 1059395562,
                "name": "维修厂",
                "type": "nan",
                "latitude": 31.477509984764342,
                "longitude": 120.26508887686056
            },
            {
                "id": 3432868,
                "name": "人文学院-田家炳楼",
                "type": "nan",
                "latitude": 31.48627037776416,
                "longitude": 120.27020001427051
            },
            {
                "id": 11218604,
                "name": "School of Medicine",
                "type": "nan",
                "latitude": 31.483534466009562,
                "longitude": 120.26234804007127
            }
        ]
    }
}